,City,Country,Lat,Long,Max Temp,Humidity,Cloudiness,Wind Speed,Date
0,Tasiilaq,GL,65.6145,-37.6368,41.0,60,75,7.56,1619484085
1,Narsaq,GL,60.9167,-46.05,37.4,87,75,1.14,1619484086
2,Cidreira,BR,-30.1811,-50.2056,62.74,76,0,9.8,1619484086
3,Saskylakh,RU,71.9167,114.0833,9.36,91,34,4.54,1619484086
4,Nīlokheri,IN,29.8333,76.9167,79.68,16,0,2.26,1619484086
5,Itarema,BR,-2.9248,-39.9167,78.57,80,97,9.51,1619484086
6,Ushuaia,AR,-54.8,-68.3,42.8,87,75,8.05,1619484004
7,Whitehorse,CA,60.7161,-135.0538,59.0,23,40,18.41,1619484087
8,Busselton,AU,-33.65,115.3333,70.63,67,27,3.27,1619484087
9,São Filipe,CV,14.8961,-24.4956,72.21,75,95,7.87,1619484087
10,Raudeberg,NO,61.9875,5.1352,37.0,77,100,6.51,1619484087
11,Cape Town,ZA,-33.9258,18.4232,63.0,88,90,13.8,1619483951
12,Waycross,US,31.2136,-82.354,73.4,53,1,6.91,1619484087
13,Alofi,NU,-19.0595,-169.9187,86.0,70,83,10.36,1619484088
14,Rikitea,PF,-23.1203,-134.9692,78.1,72,100,7.29,1619484088
15,Barrow,US,71.2906,-156.7887,21.2,79,1,21.85,1619484088
16,Kumul,CN,42.8,93.45,51.78,13,48,7.67,1619484088
17,Albany,US,42.6001,-73.9662,46.99,38,4,1.99,1619484088
18,Lima,PE,-12.0432,-77.0282,64.4,82,20,10.36,1619484006
19,Severo-Kuril'sk,RU,50.6789,156.125,31.82,98,100,18.63,1619484089
20,Waitati,NZ,-45.75,170.5667,44.01,86,98,11.99,1619484089
21,Butaritari,KI,3.0707,172.7902,82.69,76,82,10.69,1619484089
22,Castro,BR,-24.7911,-50.0119,57.31,89,1,3.09,1619484089
23,Ostrovnoy,RU,68.0531,39.5131,29.41,71,100,14.29,1619484090
24,Hobart,AU,-42.8794,147.3294,63.0,62,20,8.05,1619484090
25,Bambous Virieux,MU,-20.3428,57.7575,77.0,94,75,8.05,1619484090
26,Banepā,NP,27.6298,85.5214,60.8,67,20,2.3,1619484090
27,Ambilobe,MG,-13.2,49.05,70.57,94,10,3.6,1619484090
28,Coruripe,BR,-10.1256,-36.1756,77.13,84,4,5.3,1619484091
29,Iquitos,PE,-3.7481,-73.2472,73.94,97,95,2.73,1619484091
30,Sarangani,PH,5.4033,125.4636,82.38,70,100,3.6,1619484091
31,Seoul,KR,37.5683,126.9778,59.0,55,0,4.61,1619484005
32,Torbay,CA,47.6666,-52.7314,42.01,87,90,19.57,1619484091
33,Mrakovo,RU,52.7161,56.6244,37.8,71,100,5.21,1619484091
34,Bluff,NZ,-46.6,168.3333,48.0,69,69,11.01,1619484091
35,Mar del Plata,AR,-38.0023,-57.5575,53.01,93,0,2.89,1619484038
36,Nelson Bay,AU,-32.7167,152.15,69.01,77,20,9.22,1619484092
37,Fredericton,CA,45.9454,-66.6656,39.2,93,90,10.36,1619483848
38,Hithadhoo,MV,-0.6,73.0833,82.42,61,6,3.15,1619484092
39,Lorengau,PG,-2.0226,147.2712,85.64,66,32,2.66,1619484092
40,Ponta do Sol,PT,32.6667,-17.1,59.0,80,59,1.99,1619484092
41,Faya,SA,18.3851,42.4509,59.0,82,0,3.15,1619484092
42,Dauriya,RU,49.9333,116.8667,35.78,58,87,26.64,1619484093
43,Mataura,NZ,-46.1927,168.8643,48.0,69,67,11.01,1619484098
44,Mindelo,CV,16.8901,-24.9804,69.8,73,75,16.11,1619484098
45,Olafsvik,IS,64.8945,-23.7142,42.69,62,0,6.58,1619484098
46,Sandnessjøen,NO,66.0217,12.6316,33.8,86,17,5.75,1619484099
47,Leh,IN,34.1667,77.5833,32.14,36,0,3.15,1619484099
48,Puerto Ayora,EC,-0.7393,-90.3518,75.27,89,36,6.22,1619484099
49,Smidovich,RU,48.6,133.8167,57.18,35,46,9.86,1619484100
50,Sinnamary,GF,5.3833,-52.95,77.27,89,100,11.21,1619484100
51,Hilo,US,19.7297,-155.09,78.8,65,90,8.05,1619484100
52,Upernavik,GL,72.7868,-56.1549,33.69,77,100,4.83,1619484100
53,Lüderitz,NA,-26.6481,15.1594,59.76,84,21,8.19,1619484100
54,Tupik,RU,54.4253,119.9327,37.44,83,100,8.86,1619484100
55,Talnakh,RU,69.4865,88.3972,14.65,78,57,10.04,1619484101
56,Krutinka,RU,56.0055,71.5113,39.61,68,0,10.27,1619484101
57,Pisco,PE,-13.7,-76.2167,64.0,92,3,8.99,1619484101
58,Mahébourg,MU,-20.4081,57.7,75.2,94,75,8.05,1619484101
59,Bredasdorp,ZA,-34.5322,20.0403,55.4,94,96,1.14,1619484101
60,Punta Arenas,CL,-53.15,-70.9167,44.6,93,75,2.3,1619484101
61,Klaksvík,FO,62.2266,-6.589,39.2,81,40,19.57,1619484102
62,Tessalit,ML,20.1986,1.0114,87.46,9,50,7.72,1619484102
63,Kushmurun,KZ,52.4503,64.6311,47.59,93,100,6.31,1619484102
64,Nuevitas,CU,21.5453,-77.2644,80.6,69,0,10.36,1619484102
65,Mount Isa,AU,-20.7333,139.5,84.2,39,38,14.97,1619484102
66,Ahipara,NZ,-35.1667,173.1667,63.48,74,99,10.98,1619484102
67,Kapaa,US,22.0752,-159.319,78.8,65,40,8.05,1619484102
68,Port Elizabeth,ZA,-33.918,25.5701,60.8,94,75,16.11,1619483922
69,Yar-Sale,RU,66.8333,70.8333,32.99,97,100,12.57,1619484103
70,Osa,RU,57.2829,55.4567,35.51,77,0,6.76,1619484103
71,Okha,RU,53.5739,142.9478,33.8,79,34,14.25,1619484103
72,Faanui,PF,-16.4833,-151.75,81.18,68,100,4.38,1619484103
73,Port Alfred,ZA,-33.5906,26.891,66.29,84,88,10.49,1619484104
74,Tuktoyaktuk,CA,69.4541,-133.0374,12.2,73,1,14.97,1619484104
75,Kapuskasing,CA,49.4169,-82.4331,44.6,36,100,6.91,1619484104
76,Qaanaaq,GL,77.484,-69.3632,37.38,70,100,7.18,1619484104
77,Dārāb,IR,28.7519,54.5444,67.98,38,6,2.84,1619484104
78,Takoradze,GH,4.8845,-1.7554,80.96,87,100,6.11,1619484104
79,Sarankhola,BD,22.3082,89.7897,82.51,74,17,5.77,1619484105
80,Kruisfontein,ZA,-34.0033,24.7314,62.01,88,79,1.01,1619484105
81,Kaitangata,NZ,-46.2817,169.8464,45.0,73,98,4.0,1619484105
82,Udachny,RU,66.4167,112.4,13.87,86,92,15.23,1619484106
83,Port Lincoln,AU,-34.7333,135.8667,66.6,60,1,7.05,1619484106
84,Sitka,US,57.0531,-135.33,51.8,71,75,5.35,1619484106
85,Quartz Hill,US,34.6453,-118.2181,59.0,47,75,17.27,1619484107
86,Katsuura,JP,35.1333,140.3,59.0,62,20,9.22,1619484107
87,La Providencia,MX,28.7167,-111.5833,75.99,39,99,10.0,1619484112
88,Hermanus,ZA,-34.4187,19.2345,62.01,85,96,1.99,1619484113
89,New Norfolk,AU,-42.7826,147.0587,63.0,52,4,3.0,1619484113
90,Guerrero Negro,MX,27.9769,-114.0611,61.74,64,100,16.71,1619484113
91,Dumka,IN,24.2667,87.25,84.67,12,60,3.18,1619484114
92,Rawson,AR,-43.3002,-65.1023,63.93,41,15,7.23,1619484114
93,Erenhot,CN,43.6475,111.9767,39.99,31,100,19.86,1619484114
94,Siedlce,PL,52.1677,22.2901,28.99,74,11,4.88,1619484114
95,Toba,JP,34.4833,136.85,55.0,70,65,5.01,1619484114
96,Fairbanks,US,64.8378,-147.7164,55.4,28,1,13.8,1619484115
97,Aklavik,CA,68.2191,-135.0107,23.0,45,91,9.22,1619484115
98,Constantine,DZ,36.365,6.6147,51.8,93,0,3.44,1619484115
99,Dingle,PH,10.9995,122.6711,84.04,62,19,9.98,1619484115
100,Ribeira Grande,PT,38.5167,-28.7,60.62,84,100,3.58,1619484115
101,Nardaran,AZ,40.5561,50.0056,53.6,94,20,11.5,1619484116
102,Sorong,ID,-0.8833,131.25,83.01,73,89,2.59,1619484116
103,Lompoc,US,34.6391,-120.4579,57.2,62,0,18.41,1619484116
104,Ilinge,ZA,-31.9768,27.0427,61.34,31,100,5.37,1619484116
105,Khatanga,RU,71.9667,102.5,22.23,93,100,17.47,1619483828
106,Nikolskoye,RU,59.7035,30.7861,41.0,75,75,6.71,1619484117
107,Jingdezhen,CN,29.2947,117.2079,64.4,95,100,2.73,1619484018
108,Alice Springs,AU,-23.7,133.8833,66.2,30,0,8.05,1619483992
109,Karratha,AU,-20.7377,116.8463,82.17,21,0,14.18,1619484117
110,Mount Gambier,AU,-37.8333,140.7667,57.2,67,75,5.75,1619484117
111,Henties Bay,NA,-22.116,14.2845,61.0,89,2,1.01,1619484118
112,Puertollano,ES,38.6871,-4.1073,54.0,80,93,1.99,1619484118
113,Bethel,US,41.3712,-73.414,55.4,21,1,5.75,1619484118
114,Avera,US,33.194,-82.5271,68.0,64,1,5.03,1619484118
115,Vaini,TO,-21.2,-175.2,77.0,94,90,4.61,1619484118
116,Jaciara,BR,-15.9653,-54.9683,68.56,91,75,2.13,1619484119
117,Itoman,JP,26.1247,127.6694,71.6,64,40,13.8,1619484119
118,Oussouye,SN,12.485,-16.5469,75.2,88,0,4.61,1619484119
119,Jumla,NP,29.2747,82.1838,51.62,46,0,3.47,1619484119
120,Marrakesh,MA,31.6315,-8.0083,60.8,72,75,6.91,1619483866
121,Naantali,FI,60.4674,22.0243,36.0,87,90,3.44,1619484119
122,Dargaville,NZ,-35.9333,173.8833,63.79,72,83,11.14,1619484119
123,Pedernales,DO,18.0384,-71.744,78.21,75,76,2.21,1619484120
124,Saint-Joseph,RE,-21.3667,55.6167,77.0,73,90,19.57,1619484120
125,Inhambane,MZ,-23.865,35.3833,71.2,88,0,4.85,1619484120
126,Mocuba,MZ,-16.8392,36.9856,69.8,97,90,1.68,1619484120
127,Kjøllefjord,NO,70.9457,27.3465,30.27,64,95,8.5,1619484120
128,Tura,IN,25.5198,90.2201,82.18,36,100,6.89,1619484121
129,Luwuk,ID,-0.9516,122.7875,84.42,68,23,4.27,1619484121
130,Adré,TD,13.4667,22.2,80.69,9,6,14.88,1619484126
131,Ust-Kuyga,RU,70.0167,135.6,26.2,92,100,7.96,1619484126
132,North Bend,US,43.4065,-124.2243,55.4,67,90,13.8,1619484126
133,Atuona,PF,-9.8,-139.0333,79.92,74,99,14.81,1619484127
134,Vestmannaeyjar,IS,63.4427,-20.2734,44.46,89,20,9.46,1619484127
135,Cuiabá,BR,-15.5961,-56.0967,75.2,83,75,4.61,1619484031
136,Pishin,PK,30.5803,66.9961,65.61,21,0,2.42,1619484128
137,Turaif,SA,31.6725,38.6637,55.4,76,0,13.8,1619484128
138,Dunedin,NZ,-45.8742,170.5036,44.01,84,99,14.0,1619484129
139,Adrar,MR,20.5022,-10.0711,80.96,20,7,11.65,1619484129
140,Saint Paul Harbor,US,57.79,-152.4072,42.8,87,90,14.97,1619484129
141,Ixtapa,MX,20.7,-105.2,80.6,74,75,9.22,1619484129
142,Olinda,BR,-8.0089,-34.8553,78.8,73,40,6.91,1619484129
143,Hong Kong,HK,22.2855,114.1577,73.99,89,100,1.01,1619484087
144,Longyearbyen,SJ,78.2186,15.6401,19.4,63,40,13.8,1619484130
145,Sioux Lookout,CA,50.1001,-91.917,35.6,75,90,8.05,1619484130
146,Botou,CN,38.0667,116.5667,68.47,12,0,14.45,1619484130
147,Chabahar,IR,25.2919,60.643,81.55,68,0,9.75,1619484130
148,Hambantota,LK,6.1241,81.1185,78.8,100,20,3.44,1619484130
149,Arara,BR,-6.8283,-35.7583,73.4,88,0,10.36,1619484131
150,Sangar,RU,63.9242,127.4739,23.63,90,100,13.13,1619484131
151,Vardø,NO,70.3705,31.1107,33.1,61,97,16.55,1619484131
152,Burns Lake,CA,54.2331,-125.7533,60.8,17,0,11.5,1619484131
153,Beloha,MG,-25.1667,45.05,70.27,74,0,5.5,1619484131
154,Vysokogornyy,RU,50.1167,139.15,46.06,66,99,2.57,1619484131
155,Leningradskiy,RU,69.3833,178.4167,31.53,85,87,4.16,1619484131
156,Lahaina,US,20.8783,-156.6825,80.6,57,75,9.22,1619484132
157,Cabo San Lucas,MX,22.8909,-109.9124,77.0,68,90,19.57,1619484132
158,Denpasar,ID,-8.65,115.2167,82.4,78,75,4.61,1619484132
159,Yenagoa,NG,4.9247,6.2642,78.4,89,100,4.45,1619484132
160,Kavaratti,IN,10.5669,72.642,84.33,72,6,7.07,1619484132
161,Ilhabela,BR,-23.7781,-45.3581,72.36,83,69,3.2,1619484133
162,León,MX,21.1167,-101.6667,87.8,20,75,8.05,1619484133
163,Yārāda,IN,17.65,83.2667,80.6,89,20,2.3,1619484133
164,Bemidji,US,47.4736,-94.8803,39.0,100,90,6.91,1619484133
165,Estelle,US,29.8458,-90.1067,73.4,78,75,12.66,1619484133
166,Broken Hill,AU,-31.95,141.4333,64.4,39,5,3.44,1619484133
167,Mariehamn,AX,60.0973,19.9348,32.0,93,0,4.61,1619484019
168,Makakilo City,US,21.3469,-158.0858,82.4,57,40,10.36,1619484134
169,Atar,MR,20.5169,-13.0499,78.93,18,13,3.33,1619484134
170,Saint George,US,37.1041,-113.5841,57.99,47,1,16.11,1619484134
171,Rome,US,43.2128,-75.4557,42.8,36,1,10.36,1619483993
172,Arrondissement de Langres,FR,47.8333,5.3333,48.2,46,0,10.36,1619484134
173,Tokonou,GN,9.65,-9.7833,73.54,77,100,3.76,1619484134
174,Chicama,PE,-7.8447,-79.1469,69.91,77,10,5.61,1619484135
175,Tuatapere,NZ,-46.1333,167.6833,48.0,69,92,11.01,1619484135
176,Kununurra,AU,-15.7667,128.7333,84.2,54,90,8.05,1619484140
177,Fortuna,US,40.5982,-124.1573,55.99,62,1,12.66,1619484140
178,George Town,MY,5.4112,100.3354,77.0,94,40,4.61,1619484140
179,Pombia,IT,45.653,8.6336,51.01,93,75,2.3,1619484140
180,Lamu,KE,-2.2717,40.902,80.62,81,100,9.64,1619484141
181,Eldorado,BR,-23.7869,-54.2836,58.44,74,0,5.08,1619484141
182,Yarmouth,US,41.7057,-70.2286,48.99,57,1,4.61,1619484141
183,Pevek,RU,69.7008,170.3133,25.57,92,100,3.8,1619484141
184,Lesnoy,RU,57.6198,63.0784,39.74,62,19,10.98,1619484141
185,Touros,BR,-5.1989,-35.4608,77.0,88,20,4.61,1619484141
186,Mogadishu,SO,2.0371,45.3438,82.33,75,30,6.85,1619484141
187,Abong Mbang,CM,3.9833,13.1833,67.8,96,96,0.92,1619484142
188,Orlik,RU,52.5178,99.825,25.32,77,31,2.21,1619484142
189,Hue,VN,16.4667,107.6,77.0,88,75,11.5,1619484142
190,Antofagasta,CL,-23.65,-70.4,60.8,77,0,5.75,1619483958
191,Hofn,IS,64.2539,-15.2082,38.3,69,28,1.68,1619484142
192,Hereford,GB,52.0568,-2.7148,41.0,86,90,3.11,1619484143
193,Avarua,CK,-21.2078,-159.775,82.4,65,40,8.05,1619484143
194,Darhan,MN,49.4867,105.9228,42.12,41,99,13.06,1619484143
195,Juegang,CN,32.3174,121.1855,59.4,94,100,5.7,1619484143
196,Conakry,GN,9.538,-13.6773,80.37,65,100,3.87,1619484143
197,Vostok,RU,46.4856,135.8833,55.89,27,100,4.12,1619484143
198,Sørland,NO,67.667,12.6934,36.81,57,47,16.08,1619484143
199,Pangody,RU,65.85,74.4859,33.1,98,100,17.16,1619484144
200,Makiyivka,UA,48.0478,37.9258,36.19,73,6,8.97,1619484144
201,Fort Nelson,CA,58.8053,-122.7002,24.8,74,90,8.05,1619484144
202,Nuuk,GL,64.1835,-51.7216,35.6,93,90,5.75,1619484144
203,Tiksi,RU,71.6872,128.8694,16.47,87,100,11.07,1619484144
204,Srednekolymsk,RU,67.45,153.6833,27.57,75,68,5.48,1619484145
205,Saint-Philippe,RE,-21.3585,55.7679,77.0,73,90,19.57,1619484145
206,Dikson,RU,73.5069,80.5464,31.8,98,100,17.6,1619484145
207,Puerto Quijarro,BO,-17.7833,-57.7667,72.43,69,82,2.93,1619484145
208,Shelburne,CA,44.0787,-80.2041,46.0,49,20,4.61,1619484145
209,Norman Wells,CA,65.282,-126.8329,17.6,41,75,3.44,1619484145
210,Amga,RU,60.8953,131.9608,38.14,90,100,1.3,1619484146
211,Thompson,CA,55.7435,-97.8558,48.2,49,40,12.66,1619484146
212,Nanortalik,GL,60.1432,-45.2371,34.25,94,92,9.44,1619484146
213,Coleraine,GB,55.1333,-6.6667,46.4,87,75,9.22,1619484146
214,Juneau,US,58.3019,-134.4197,62.6,20,75,9.22,1619484146
215,Zelenoborskiy,RU,66.845,32.3622,25.48,91,100,1.59,1619484147
216,Royan,FR,45.6285,-1.0281,55.4,71,0,4.61,1619484147
217,Anadyr,RU,64.75,177.4833,30.2,100,0,4.47,1619484147
218,‘Ewa Beach,US,21.3156,-158.0072,82.4,57,40,10.36,1619484147
219,Najrān,SA,17.4924,44.1277,68.0,83,40,6.91,1619484147
220,Lebu,CL,-37.6167,-73.65,53.55,88,10,9.33,1619484147
221,Nālūt,LY,30.3333,10.85,78.31,21,1,11.95,1619484147
222,Corinth,GR,37.9407,22.9573,57.0,61,79,2.53,1619484130
223,Provideniya,RU,64.3833,-173.3,39.2,65,0,2.24,1619484153
224,Chengdu,CN,30.6667,104.0667,69.01,94,41,4.47,1619484021
225,Bayevo,RU,53.2833,80.7667,48.76,72,100,8.03,1619484153
226,Cherskiy,RU,68.75,161.3,24.28,79,68,7.96,1619484020
227,Vrangel',RU,42.7297,133.0839,46.54,76,100,5.01,1619484153
228,Guilin,CN,25.2819,110.2864,60.8,94,75,2.24,1619484154
229,Limbang,MY,4.75,115.0,80.6,89,75,2.3,1619484154
230,East London,ZA,-33.0153,27.9116,68.13,82,70,11.65,1619484154
231,Itororó,BR,-15.1169,-40.0703,68.22,91,59,3.51,1619484154
232,Baykit,RU,61.67,96.37,33.39,71,18,3.18,1619484154
233,Yatou,CN,37.15,122.3833,53.64,95,100,13.87,1619484154
234,Avola,IT,36.9113,15.1395,64.4,52,100,13.8,1619484155
235,Quatre Cocos,MU,-20.2078,57.7625,77.0,94,75,8.05,1619484155
236,Coquimbo,CL,-29.9533,-71.3436,57.2,82,0,3.44,1619483935
237,Brewster,US,41.3973,-73.6171,55.4,21,1,5.75,1619484155
238,Sobolevo,RU,54.4299,31.8996,30.09,80,70,4.68,1619484155
239,Arkhangelsk,RU,64.5401,40.5433,32.0,80,90,6.71,1619484156
240,Kavieng,PG,-2.5744,150.7967,84.24,68,67,3.96,1619484156
241,Nizwá,OM,22.9333,57.5333,75.88,31,82,1.52,1619484156
242,Walvis Bay,NA,-22.9575,14.5053,61.0,88,38,5.75,1619484156
243,Port Blair,IN,11.6667,92.75,82.4,71,95,3.96,1619483886
244,Beitbridge,ZW,-22.2167,30.0,65.62,49,0,3.56,1619484156
245,Ancud,CL,-41.8697,-73.8203,55.99,94,90,6.91,1619484157
246,Esperance,AU,-33.8667,121.9,71.6,30,100,17.27,1619484157
247,Matamoros,MX,25.5333,-103.25,93.2,5,90,4.61,1619484157
248,Aquiraz,BR,-3.9014,-38.3911,82.4,78,40,5.75,1619484157
249,Jamestown,US,42.097,-79.2353,46.4,46,1,10.36,1619484157
250,College,US,64.8569,-147.8028,55.4,30,20,14.97,1619484158
251,Tomatlán,MX,19.9333,-105.25,80.13,49,100,7.47,1619484158
252,San Quintín,MX,30.4833,-115.95,56.8,76,100,12.08,1619484158
253,Carnarvon,AU,-24.8667,113.6333,69.8,52,0,8.19,1619484158
254,Egvekinot,RU,66.3167,-179.1667,25.79,92,68,3.33,1619484158
255,Sibolga,ID,1.7427,98.7792,78.87,84,100,2.89,1619484159
256,Çeşme,TR,38.3228,26.3064,57.2,62,0,4.61,1619483994
257,Northam,GB,51.0333,-4.2167,44.01,31,41,2.71,1619484159
258,Puerto Ayacucho,VE,5.6639,-67.6236,80.49,76,74,5.1,1619484159
259,Nan,TH,18.8333,100.6667,75.2,94,20,2.3,1619484159
260,Plátanos,GR,37.6667,21.6167,55.4,88,20,6.6,1619484160
261,Lucapa,AO,-8.4192,20.7447,66.94,91,100,2.28,1619484160
262,Hīt,IQ,33.6416,42.8251,75.99,25,53,19.22,1619484160
263,Wabana,CA,47.6332,-52.9481,42.01,87,90,19.57,1619484160
264,Slonim,BY,53.0867,25.3219,27.75,95,15,5.84,1619484160
265,Atasū,KZ,48.6814,71.6433,53.15,45,93,8.19,1619484161
266,Marzuq,YE,14.4,46.4667,71.44,60,100,3.44,1619484161
267,Vestmanna,FO,62.1564,-7.1664,39.2,81,40,19.57,1619484166
268,Shunyi,CN,40.125,116.6453,59.0,63,26,2.24,1619484166
269,Grindavik,IS,63.8424,-22.4338,42.8,93,75,5.75,1619484166
270,Sechura,PE,-5.5569,-80.8222,72.43,69,41,15.59,1619484166
271,Prabumulih,ID,-3.45,104.25,79.43,79,10,3.8,1619484167
272,Vila Franca do Campo,PT,37.7167,-25.4333,59.0,82,75,8.05,1619484167
273,Zaraza,VE,9.3503,-65.3245,79.18,70,10,10.65,1619484167
274,Chui,UY,-33.6971,-53.4616,54.18,80,0,7.63,1619484167
275,Klyuchi,RU,52.2667,79.1667,51.76,74,100,8.16,1619484167
276,Superior,US,46.7208,-92.1041,37.4,100,90,12.66,1619484167
277,Yellowknife,CA,62.456,-114.3525,10.4,48,20,16.11,1619483898
278,Nouadhibou,MR,20.931,-17.0347,66.2,88,0,14.97,1619484168
279,Bathsheba,BB,13.2167,-59.5167,78.8,65,40,13.8,1619484168
280,Anapskaya,RU,44.89,37.38,41.0,87,8,4.47,1619484168
281,Airai,TL,-8.9266,125.4092,69.87,43,11,2.06,1619484168
282,Leer,SS,8.3018,30.1418,72.97,81,100,4.68,1619484169
283,Port Hardy,CA,50.6996,-127.4199,53.6,71,75,10.36,1619484169
284,Gambēla,ET,8.25,34.5833,71.02,85,100,2.55,1619484169
285,Kapoeta,SS,4.7717,33.5903,71.02,82,100,6.4,1619484169
286,Chokurdakh,RU,70.6333,147.9167,25.9,84,98,2.89,1619484169
287,Chapais,CA,49.7834,-74.8492,33.8,69,90,9.22,1619484170
288,Moerai,PF,-22.4333,-151.3333,78.08,75,71,7.02,1619484170
289,Atyrau,KZ,47.1167,51.8833,50.0,93,75,4.47,1619484170
290,Hvide Sande,DK,56.0045,8.1294,30.99,78,5,10.49,1619484147
291,Rabo de Peixe,PT,37.8,-25.5833,59.0,82,75,8.05,1619484170
292,Glenwood Springs,US,39.5505,-107.3248,61.0,38,99,16.11,1619484170
293,Amapá,BR,1.0,-52.0,72.23,98,100,2.59,1619484170
294,Port Macquarie,AU,-31.4333,152.9167,72.0,63,0,4.0,1619484069
295,Codrington,AU,-38.2667,141.9667,60.55,64,88,0.74,1619484171
296,Tabou,CI,4.423,-7.3528,80.02,85,79,7.0,1619484171
297,Dunga Bunga,PK,29.7493,73.2432,82.83,10,0,7.23,1619484171
298,Port-Gentil,GA,-0.7193,8.7815,82.18,79,100,6.85,1619484171
299,Cap Malheureux,MU,-19.9842,57.6142,77.0,83,100,5.01,1619484171
300,Coahuayana Viejo,MX,18.7333,-103.6833,82.4,47,90,13.8,1619484172
301,Westport,US,41.1415,-73.3579,57.2,19,1,16.11,1619484172
302,Gold Coast,AU,-28.0,153.4333,77.0,60,1,9.22,1619484172
303,Benicarló,ES,40.4165,0.4271,51.01,93,67,2.39,1619484172
304,Swellendam,ZA,-34.0226,20.4417,55.4,94,40,1.14,1619484172
305,Glace Bay,CA,46.1969,-59.957,46.99,100,90,10.36,1619484172
306,Brigantine,US,39.4101,-74.3646,57.2,28,1,8.05,1619484172
307,Ulaangom,MN,49.9811,92.0667,37.6,48,91,3.38,1619484173
308,Sirte,LY,31.2089,16.5887,67.42,47,20,14.09,1619484173
309,Goundam,ML,16.4145,-3.6708,86.25,14,0,7.99,1619484173
310,Muzhi,RU,65.3667,64.6667,34.99,99,100,2.73,1619484173
311,Mildura,AU,-34.2,142.15,66.0,55,1,5.75,1619484173
312,Praia,CV,14.9215,-23.5087,69.8,73,75,17.27,1619484173
313,Morón,AR,-34.6534,-58.6198,62.01,82,0,2.28,1619483910
314,Ndola,ZM,-12.9587,28.6366,64.0,86,100,1.01,1619484179
315,Birjand,IR,32.8663,59.2211,66.2,16,75,9.22,1619484179
316,Murom,RU,55.5656,42.0417,35.62,73,100,5.88,1619484179
317,Yuzhnyy,RU,53.2542,83.6936,48.2,61,0,8.95,1619484179
318,Xai-Xai,MZ,-25.0519,33.6442,66.79,95,7,7.07,1619484179
319,Bagdarin,RU,54.4333,113.6,29.39,60,100,15.32,1619484179
320,Haines Junction,CA,60.7522,-137.5108,53.6,24,12,9.22,1619484180
321,North Myrtle Beach,US,33.816,-78.68,64.99,72,1,5.75,1619484180
322,Geraldton,AU,-28.7667,114.6,68.0,45,20,5.75,1619484180
323,Myskhako,RU,44.6714,37.7433,41.0,87,6,4.47,1619484180
324,Oranjemund,NA,-28.55,16.4333,58.86,87,17,4.12,1619484180
325,Bač,RS,45.3919,19.2367,48.99,81,75,5.75,1619484180
326,Tarqui,CO,2.1125,-75.8242,71.55,93,100,3.29,1619484181
327,Kikwit,CD,-5.041,18.8162,71.37,94,99,2.1,1619483889
328,Oudtshoorn,ZA,-33.5907,22.2014,55.4,100,20,3.44,1619484181
329,Usinsk,RU,65.9939,57.5281,35.38,98,100,8.1,1619484181
330,Porbandar,IN,21.6422,69.6093,78.8,94,0,5.75,1619484181
331,St. Pete Beach,US,27.7253,-82.7412,81.0,61,1,13.8,1619484182
332,Ulety,RU,51.3572,112.4849,35.78,60,42,19.55,1619484182
333,Ishigaki,JP,24.3448,124.1572,75.2,64,20,11.5,1619484182
334,Monastyryshche,UA,48.9909,29.8047,32.99,75,21,4.83,1619484182
335,Worland,US,44.0169,-107.9554,46.0,87,90,5.75,1619484182
336,Balikpapan,ID,-1.2675,116.8289,79.45,86,77,3.02,1619484182
337,Falam,MM,22.9167,93.6833,73.35,33,84,2.57,1619484183
338,Nortelândia,BR,-14.4547,-56.8028,69.98,89,69,1.3,1619484183
339,Pavlivka,UA,49.4414,28.4596,33.12,78,100,5.14,1619484183
340,Margate,GB,51.3813,1.3862,44.01,81,100,1.01,1619484183
341,Eureka,US,40.8021,-124.1637,55.99,71,1,11.5,1619484183
342,Pinan,SE,58.68,11.6463,33.8,74,6,2.3,1619484183
343,Elliot Lake,CA,46.3834,-82.6331,35.6,80,90,12.66,1619484184
344,Kattivākkam,IN,13.2167,80.3167,82.4,78,40,2.3,1619484184
345,Te Anau,NZ,-45.4167,167.7167,45.57,65,21,1.41,1619484184
346,Eston,CA,51.1501,-108.7514,59.0,18,75,12.66,1619484185
347,Iqaluit,CA,63.7506,-68.5145,23.0,80,90,21.85,1619484185
348,Jacareacanga,BR,-6.2222,-57.7528,73.24,98,100,0.56,1619484185
349,Punto Fijo,VE,11.6956,-70.1996,79.23,78,61,22.77,1619484185
350,Beyneu,KZ,45.3167,55.2,70.23,42,100,8.14,1619484185
351,Forrest City,US,35.0081,-90.7898,73.4,60,1,5.75,1619484185
352,Anshun,CN,26.25,105.9333,55.56,91,100,6.22,1619484086
353,Bonthe,SL,7.5264,-12.505,80.08,82,21,4.85,1619484186
354,Bonavista,CA,48.6499,-53.1147,39.2,70,100,11.5,1619484186
355,Ola,RU,59.5833,151.2833,23.22,77,42,4.07,1619484186
356,Khanpur,PK,28.6453,70.6567,84.36,11,0,7.65,1619484187
357,Chillicothe,US,39.3331,-82.9824,64.4,29,1,4.61,1619484187
358,Esfarāyen,IR,37.0765,57.5101,55.4,54,0,2.3,1619484187
359,Itupiranga,BR,-5.1347,-49.3267,74.32,95,98,1.54,1619484192
360,Balkhash,KZ,46.844,74.9804,48.2,43,0,11.18,1619484193
361,Helena,US,46.5927,-112.0361,55.4,30,90,11.5,1619484193
362,Santiago del Estero,AR,-27.7951,-64.2615,61.66,62,7,7.18,1619484099
363,Lethem,GY,3.3803,-59.7968,75.6,92,100,11.32,1619484193
364,Ribeira Brava,PT,32.65,-17.0667,59.0,83,57,5.99,1619484193
365,Junction City,US,39.0286,-96.8314,82.4,44,20,17.27,1619484193
366,Tiznit Province,MA,29.5833,-9.5,56.07,87,0,2.3,1619484193
367,Rusnė,LT,55.2964,21.3758,37.4,87,75,11.18,1619484194
368,Santo Domingo,DO,18.5001,-69.9886,81.0,78,40,1.19,1619484194
369,Sistranda,NO,63.7256,8.834,33.8,86,75,2.3,1619484270
370,Pindiga,NG,9.9833,10.9333,80.73,53,94,7.36,1619484270
371,Marabu,MY,4.4148,114.0089,82.4,83,20,4.61,1619484270
372,San Ramon,US,37.7799,-121.978,59.0,44,1,19.57,1619484271
373,Gaza,PS,31.5,34.4667,62.01,100,100,7.02,1619484264
374,Yinchuan,CN,38.4681,106.2731,51.22,16,100,3.69,1619484271
375,Talcahuano,CL,-36.7167,-73.1167,57.2,82,0,4.61,1619484271
376,Zhigansk,RU,66.7697,123.3711,16.03,85,100,16.06,1619484271
377,Nikel,RU,69.4128,30.222,26.6,80,70,6.91,1619484271
378,Kahului,US,20.8947,-156.47,80.6,57,20,6.91,1619484272
379,Sungai Raya,ID,0.7,108.9,81.77,78,15,2.82,1619484187
380,Mizdah,LY,31.4451,12.9801,73.24,23,24,4.47,1619484272
381,Dubbo,AU,-32.25,148.6167,68.0,52,0,10.36,1619484272
382,Norsup,VU,-16.0667,167.3833,81.68,68,97,11.45,1619484272
383,Pemberton,CA,50.3164,-122.8027,53.6,54,75,3.44,1619484273
384,Monrovia,LR,6.3005,-10.7969,77.0,100,20,5.79,1619484235
385,Vila Velha,BR,-20.3297,-40.2925,78.8,89,75,2.3,1619484166
386,Kamina,CD,-8.7386,24.9906,65.66,92,100,2.8,1619484273
387,Brooks,CA,50.5834,-111.8851,60.8,21,5,8.05,1619484273
388,Naze,JP,28.3667,129.4833,71.6,64,20,8.05,1619484273
389,Shimoda,JP,34.6667,138.95,59.0,67,75,9.22,1619484273
390,Dwārka,IN,22.2394,68.9678,80.04,74,0,9.31,1619484274
391,Tromsø,NO,69.6496,18.957,30.2,93,75,6.91,1619484274
392,Saint Anthony,US,45.0205,-93.218,46.99,76,90,8.05,1619484274
393,Cartagena del Chairá,CO,1.3349,-74.8429,74.5,96,100,2.06,1619484274
394,La Ronge,CA,55.1001,-105.2842,33.8,86,90,11.5,1619484274
395,Charters Towers,AU,-20.1,146.2667,75.34,44,74,12.5,1619484274
396,Sayyan,YE,15.1718,44.3244,53.46,85,100,1.39,1619484275
397,Potiskum,NG,11.7091,11.0694,83.79,14,0,6.89,1619484275
398,Novy Urengoy,RU,66.0833,76.6333,31.21,96,100,14.5,1619484275
399,Bereda,ES,43.2686,-7.5406,52.0,100,66,3.0,1619484275
400,Mehamn,NO,71.0357,27.8492,30.43,65,99,9.31,1619484275
401,Shache,CN,38.4167,77.2406,59.52,22,0,1.92,1619484276
402,Bako,ET,5.7833,36.5667,61.3,94,100,3.47,1619484276
403,Nome,US,64.5011,-165.4064,44.6,61,1,3.44,1619484276
404,Carnot,CF,4.9409,15.8665,73.2,69,33,0.74,1619484276
405,Hervey Bay,AU,-25.2986,152.8535,73.0,71,96,8.99,1619484281
406,Hasaki,JP,35.7333,140.8333,61.0,51,75,5.75,1619484281
407,Araouane,ML,18.9048,-3.5265,88.68,14,29,10.67,1619484282
408,Kieta,PG,-6.2167,155.6333,86.7,64,80,3.69,1619484282
409,Sur,OM,22.5667,59.5289,84.65,37,9,9.82,1619484282
410,Pangnirtung,CA,66.1451,-65.7125,34.48,98,100,3.22,1619484282
411,Palu,ID,-0.8917,119.8707,87.55,62,33,1.72,1619484282
412,Bowen,AU,-20.0167,148.2333,77.0,65,85,17.27,1619484283
413,Ndungu,TZ,-4.3667,38.05,70.7,93,100,3.18,1619484283
414,Along,IN,28.1667,94.7667,74.8,47,79,2.06,1619484283
415,Grand-Santi,GF,4.25,-54.3833,73.72,99,100,3.13,1619484283
416,Tobermory,CA,45.2501,-81.6665,37.4,70,100,4.61,1619484283
417,Liberia,LR,6.5,-9.5,73.99,98,60,2.44,1619484283
418,Shiyan,CN,32.6475,110.7781,67.15,66,100,4.54,1619484283
419,Yuxia,CN,34.0615,108.6291,59.0,82,51,4.47,1619484284
420,Marmora,IT,44.4583,7.094,48.2,93,90,4.61,1619484284
421,Fukuechō,JP,32.6881,128.8419,60.8,94,75,11.5,1619484284
422,Darnah,LY,32.767,22.6367,59.67,70,43,4.92,1619484284
423,Mandalgovi,MN,45.7625,106.2708,32.25,53,86,18.41,1619484284
424,Sept-Îles,CA,50.2001,-66.3821,42.8,87,90,16.11,1619484284
425,Bubaque,GW,11.2833,-15.8333,78.01,70,51,15.88,1619484285
426,Piaçabuçu,BR,-10.4056,-36.4344,77.83,81,4,5.32,1619484285
427,Baryshivka,UA,50.361,31.3217,39.0,69,0,4.47,1619484285
428,Port Said,EG,31.2565,32.2841,62.6,82,0,11.5,1619484285
429,Souillac,MU,-20.5167,57.5167,75.2,94,75,8.05,1619484285
430,Golden,US,39.7555,-105.2211,73.0,10,75,13.8,1619484285
431,Greenville,US,35.6127,-77.3663,64.99,58,1,5.84,1619484286
432,Tautira,PF,-17.7333,-149.15,87.8,58,40,5.75,1619484286
433,Sisimiut,GL,66.9395,-53.6735,33.85,99,100,5.91,1619484286
434,Chiredzi,ZW,-21.05,31.6667,63.79,59,4,2.86,1619484286
435,Palembang,ID,-2.9167,104.7458,77.0,88,20,4.61,1619484286
436,Arlit,NE,18.7369,7.3853,90.19,10,85,8.43,1619484287
437,Aljezur,PT,37.3191,-8.8033,57.9,92,78,4.72,1619484287
438,Wanning,CN,18.8003,110.3967,79.65,83,100,5.73,1619484287
439,Itaituba,BR,-4.2761,-55.9836,73.17,99,100,1.54,1619484072
440,Krasnosel'kup,RU,65.7,82.4667,30.69,89,9,15.93,1619484287
441,Cayenne,GF,4.9333,-52.3333,75.99,100,75,3.44,1619484288
442,Portland,US,45.5234,-122.6762,57.99,62,75,5.46,1619484288
443,Huron,US,41.1501,-82.5499,57.99,52,100,3.0,1619484288
444,Khandyga,RU,62.6667,135.6,33.64,100,100,4.41,1619484288
445,Cairns,AU,-16.9167,145.7667,79.0,78,90,13.8,1619484081
446,Koygorodok,RU,60.445,50.9968,36.46,97,100,6.67,1619484288
447,Korem,ET,12.5058,39.5228,52.83,84,100,3.76,1619484288
448,Henderson,US,36.0397,-114.9819,69.8,30,1,24.16,1619484051
449,Pachino,IT,36.7186,15.0907,64.4,52,100,13.8,1619484289
450,Domoni,KM,-12.2569,44.5319,78.49,84,84,2.82,1619484289
451,Newberry,US,34.2746,-81.6187,64.99,79,8,4.79,1619484294
452,Coari,BR,-4.085,-63.1414,73.17,98,100,2.51,1619484294
453,Arti,RU,56.4234,58.5328,34.66,73,81,7.0,1619484294
454,Mgandu,TZ,-5.95,34.1333,59.5,98,90,4.52,1619484295
455,Berlevåg,NO,70.8578,29.0864,31.69,60,100,11.23,1619484295
456,Yulara,AU,-25.2406,130.9889,66.2,32,0,16.11,1619484295
457,Deputatsky,RU,69.3,139.9,28.06,94,100,2.39,1619484295
458,Terrace,CA,54.5163,-128.6035,62.6,20,20,11.5,1619484295
459,Huarmey,PE,-10.0681,-78.1522,67.46,87,6,8.32,1619484295
460,Wangou,CN,42.0623,126.9127,46.81,90,100,6.38,1619484296
461,Hirara,JP,24.8,125.2833,77.0,60,20,14.97,1619484296
462,Kholodnyy,RU,62.7167,147.95,15.55,79,100,4.14,1619484296
463,Okhotsk,RU,59.3833,143.3,25.97,77,100,4.14,1619484296
464,Pitimbu,BR,-7.4706,-34.8086,77.0,88,20,4.61,1619484296
465,Salalah,OM,17.0151,54.0924,80.6,74,20,4.61,1619484297
466,Tual,ID,-5.6667,132.75,83.1,57,5,3.13,1619484297
467,Rājur,IN,20.1167,78.9167,88.02,34,100,11.27,1619484297
468,Anta,IN,25.15,76.3,83.44,8,0,2.37,1619484297
469,Havøysund,NO,70.9963,24.6622,26.6,93,40,4.61,1619484297
470,Władysławowo,PL,54.7909,18.4009,37.0,69,75,6.91,1619484297
471,Karaman Province,TR,37.0833,33.25,44.89,78,47,10.67,1619484176
472,Imbituba,BR,-28.24,-48.6703,68.0,60,75,3.44,1619484298
473,Assiniboia,CA,49.6334,-105.9845,55.4,33,99,5.75,1619484298
474,Tezu,IN,27.9167,96.1667,85.8,19,5,0.78,1619484298
475,Laval,CA,45.57,-73.692,48.2,31,10,3.44,1619484298
476,Tilichiki,RU,60.4667,166.1,31.03,99,100,0.49,1619484298
477,Trairi,BR,-3.2778,-39.2689,77.79,81,73,6.98,1619484131
478,Derbent,RU,42.0678,48.2899,53.74,90,100,6.6,1619484299
479,Pacific Grove,US,36.6177,-121.9166,55.99,77,74,1.01,1619484299
480,Mitsamiouli,KM,-11.3847,43.2844,80.85,73,71,7.23,1619484299
481,Orshanka,RU,56.9161,47.8933,32.14,83,8,3.38,1619484217
482,Katra,IN,32.9833,74.95,65.08,41,5,10.89,1619484299
483,Mokhsogollokh,RU,61.4681,128.9203,32.83,87,100,8.52,1619484299
484,Byron Bay,AU,-28.65,153.6167,69.8,68,40,10.36,1619484300
485,Vallenar,CL,-28.5708,-70.7581,61.68,70,0,2.33,1619484300
486,Labuhan,ID,-6.8844,112.2051,80.78,77,14,6.62,1619484300
487,Bereket,TM,39.2446,55.5154,76.06,30,99,2.71,1619484300
488,Panabá,MX,21.2833,-88.2667,83.1,54,41,14.12,1619484301
489,Lewiston,US,44.1003,-70.2148,39.99,56,1,13.8,1619484301
490,Auki,SB,-8.7676,160.7034,83.57,77,100,3.76,1619484301
491,Saldanha,ZA,-33.0117,17.9442,62.6,94,8,10.36,1619484303
492,Gushi,CN,34.6425,109.5843,64.45,49,56,4.23,1619484303
493,Launceston,AU,-41.45,147.1667,57.0,66,31,5.75,1619484304
494,Constitución,CL,-35.3333,-72.4167,57.67,66,0,7.67,1619484304
495,Coyhaique,CL,-45.5752,-72.0662,51.8,87,75,8.05,1619484021
496,Zhuhai,CN,22.2769,113.5678,73.4,94,40,10.36,1619484262
497,Yakeshi,CN,49.2833,120.7333,38.98,54,100,25.66,1619484310
498,Comodoro Rivadavia,AR,-45.8667,-67.5,66.2,42,0,23.02,1619484310
499,Palmer,US,42.1584,-72.3287,51.01,34,20,11.5,1619484310
500,Haverfordwest,GB,51.8017,-4.9691,46.0,99,85,4.85,1619484311
501,Husavik,IS,66.0449,-17.3389,26.6,100,0,4.61,1619484312
502,Sargatskoye,RU,55.6101,73.4972,42.75,61,62,7.05,1619484312
503,Saint-Pierre,RE,-21.3393,55.4781,77.0,73,90,19.57,1619484312
504,Natal,BR,-5.795,-35.2094,78.8,73,40,6.91,1619484041
505,Örnsköldsvik,SE,63.2909,18.7153,26.6,93,90,3.44,1619484204
506,Otacílio Costa,BR,-27.4831,-50.1219,47.3,80,0,1.9,1619484313
507,Hualmay,PE,-11.0964,-77.6139,66.94,87,3,9.22,1619484313
508,Bitam,GA,2.076,11.5007,69.06,98,100,1.68,1619484313
509,Saint-François,FR,46.4154,3.9054,46.99,93,0,2.3,1619484313
510,Ballarat,AU,-37.5662,143.8496,60.01,77,30,4.12,1619484196
511,Trincomalee,LK,8.5711,81.2335,80.06,81,19,5.44,1619484314
512,São João da Barra,BR,-21.6403,-41.0511,73.24,93,15,10.0,1619484314
513,Ugoofaaru,MV,5.6667,73.0,83.55,72,98,7.61,1619484314
514,Great Yarmouth,GB,52.6083,1.7305,44.01,87,13,1.14,1619484314
515,Flinders,AU,-34.5833,150.8552,71.01,64,0,1.99,1619484314
516,Kirksville,US,40.1948,-92.5833,82.4,39,1,23.02,1619484314
517,Caucayá,CO,-0.1934,-74.7819,73.9,96,100,2.01,1619484315
518,Ruwi,OM,23.5996,58.5507,80.6,29,0,2.3,1619484315
519,Praia da Vitória,PT,38.7333,-27.0667,60.8,88,75,6.87,1619484315
520,Minzhu,CN,43.7286,127.3447,50.34,88,100,6.35,1619484315
521,Pechenga,RU,69.5259,31.1703,26.6,80,78,6.91,1619484315
522,Korla,CN,41.7597,86.1469,56.66,29,46,5.06,1619484316
523,Bandarbeyla,SO,9.4942,50.8122,82.47,72,94,3.49,1619484316
524,Myaundzha,RU,63.0494,147.1858,17.78,84,100,4.56,1619484316
525,Waingapu,ID,-9.6567,120.2641,80.85,58,6,9.71,1619484316
526,Gisors,FR,49.2818,1.7801,42.8,70,0,9.22,1619484316
527,Kasongo-Lunda,CD,-6.4667,16.8167,70.03,95,100,0.87,1619484316
528,Taloqan,AF,36.7361,69.5345,64.27,46,0,5.12,1619484316
529,Santana do Mundaú,BR,-9.1681,-36.2222,75.2,94,20,2.3,1619484317
530,Pucara,PE,-15.9803,-71.4606,35.44,64,1,3.42,1619484317
531,Salamiyah,SY,35.0113,37.0532,57.11,84,11,19.62,1619484317
532,Hermiston,US,45.8404,-119.2895,69.01,26,1,3.44,1619484317
533,Nevşehir,TR,38.9167,34.6667,48.2,81,75,4.61,1619484317
534,Leninogorsk,RU,54.6026,52.4609,38.88,54,100,1.9,1619484318
535,Porto Santo,PT,33.072,-16.3415,62.6,82,40,10.36,1619484318
536,Bengkulu,ID,-3.8004,102.2655,78.67,79,61,3.0,1619484318
537,Clyde River,CA,70.4692,-68.5914,24.8,100,90,3.44,1619484318
538,Mayumba,GA,-3.432,10.6554,78.57,88,100,5.32,1619484319
539,Viedma,AR,-40.8135,-62.9967,58.78,48,0,9.48,1619484035
540,Muli,MV,2.9167,73.5667,82.63,73,44,6.26,1619484324
541,Drummondville,CA,45.8834,-72.4824,44.6,52,24,9.22,1619484324
542,Escuintla,GT,14.305,-90.785,86.0,70,75,6.91,1619484324
543,Salinópolis,BR,-0.6136,-47.3561,79.16,83,100,7.76,1619484324
544,Severnyy,RU,50.677,36.5532,32.0,93,0,11.18,1619484324
545,Buarcos,PT,40.166,-8.8768,57.99,100,40,2.3,1619484325
546,Valparaíso,CL,-33.0393,-71.6273,55.4,88,90,3.44,1619484291
547,Khor,RU,47.8861,134.9464,58.42,28,100,9.35,1619484325
548,Russell,US,32.3502,-85.1999,77.0,73,1,3.44,1619484325
549,Pajapan,MX,18.25,-94.7,84.2,84,1,11.5,1619484325
550,Half Moon Bay,US,37.4636,-122.4286,59.0,71,1,14.97,1619484325
551,Cabedelo,BR,-6.9811,-34.8339,77.0,88,20,4.61,1619484325
552,Prince Rupert,CA,54.3161,-130.3201,59.0,20,1,3.44,1619484326
553,Solnechnyy,RU,50.7214,136.6319,51.96,39,100,8.48,1619484326
554,Gay,RU,51.4666,58.4552,46.4,100,75,8.95,1619484075
555,Lae,PG,-6.7221,146.9847,84.2,65,40,5.75,1619484326
556,Miandrivazo,MG,-19.5167,45.4667,73.83,84,94,4.16,1619484326
557,Yeppoon,AU,-23.1333,150.7333,77.0,50,20,11.5,1619484326
558,Vernon,CA,50.2581,-119.2691,64.99,25,98,3.44,1619484327
559,Casablanca,MA,33.5928,-7.6192,60.8,82,40,10.36,1619484148
560,Nyurba,RU,63.2842,118.3319,20.08,68,100,9.6,1619484327
561,Port Hawkesbury,CA,45.6169,-61.3485,44.01,100,90,8.05,1619484327
